,timestamp,GPS_INPUT.sysid,GPS_INPUT.compid,GPS_INPUT.time_usec,GPS_INPUT.gps_id,GPS_INPUT.ignore_flags,GPS_INPUT.time_week_ms,GPS_INPUT.time_week,GPS_INPUT.fix_type,GPS_INPUT.lat,GPS_INPUT.lon,GPS_INPUT.alt,GPS_INPUT.hdop,GPS_INPUT.vdop,GPS_INPUT.vn,GPS_INPUT.ve,GPS_INPUT.vd,GPS_INPUT.speed_accuracy,GPS_INPUT.horiz_accuracy,GPS_INPUT.vert_accuracy,GPS_INPUT.satellites_visible,GPS_INPUT.yaw,GPS_INPUT.lat_deg,GPS_INPUT.lon_deg,GPS_INPUT.rate
0,1718211418.727,1,220,0,0,185,0,0,3,476177040,-1223604562,0.0,0.6000000238418579,1.032332420349121,0.0,0.0,0.0,0.0,1.032332420349121,0.0,26,7000,47.617704,-122.3604562,2.2148394896374253
1,1718211418.947,1,220,0,0,185,0,0,3,476177040,-1223604562,0.0,0.6000000238418579,1.032332420349121,0.0,0.0,0.0,0.0,1.032332420349121,0.0,26,7000,47.617704,-122.3604562,2.300773945321907
2,1718211419.192,1,220,0,0,185,0,0,3,476177040,-1223604562,0.0,0.6000000238418579,1.032332420349121,0.0,0.0,0.0,0.0,1.032332420349121,0.0,26,7000,47.617704,-122.3604562,2.389486338501032
3,1718211419.48,1,220,0,0,185,0,0,3,476177006,-1223604567,0.0,0.6000000238418579,0.8855825066566467,0.0,0.0,0.0,0.0,0.8855825066566467,0.0,26,7400,47.6177006,-122.3604567,2.4491334530966005
4,1718211421.289,1,220,0,0,185,0,0,3,476176971,-1223604532,0.0,0.6000000238418579,0.9007461071014404,0.0,0.0,0.0,0.0,0.9007461071014404,0.0,26,7300,47.6176971,-122.3604532,2.525252566085361
5,1718211421.5609999,1,220,0,0,185,0,0,3,476176971,-1223604532,0.0,0.6000000238418579,0.9007461071014404,0.0,0.0,0.0,0.0,0.9007461071014404,0.0,26,7300,47.6176971,-122.3604532,2.5755495028456714
6,1718211421.842,1,220,0,0,185,0,0,3,476176940,-1223604529,0.0,0.6000000238418579,0.835623562335968,0.0,0.0,0.0,0.0,0.835623562335968,0.0,26,7400,47.617694,-122.3604529,2.6320118457049397
7,1718211422.0909998,1,220,0,0,185,0,0,3,476176940,-1223604529,0.0,0.6000000238418579,0.835623562335968,0.0,0.0,0.0,0.0,0.835623562335968,0.0,26,7400,47.617694,-122.3604529,2.678852839192979
8,1718211422.3439999,1,220,0,0,185,0,0,3,476176940,-1223604529,0.0,0.6000000238418579,0.835623562335968,0.0,0.0,0.0,0.0,0.835623562335968,0.0,26,7400,47.617694,-122.3604529,2.736394111358152
9,1718211422.886,1,220,0,0,185,0,0,3,476176945,-1223604504,0.0,0.6000000238418579,0.8722485303878784,0.0,0.0,0.0,0.0,0.8722485303878784,0.0,26,7400,47.6176945,-122.3604504,2.769275687395948
10,1718211423.2419999,1,220,0,0,185,0,0,3,476176942,-1223604479,0.0,0.6000000238418579,0.8679856657981873,0.0,0.0,0.0,0.0,0.8679856657981873,0.0,26,7400,47.6176942,-122.3604479,2.8169014462874165
11,1718211423.508,1,220,0,0,185,0,0,3,476176942,-1223604468,0.0,0.6000000238418579,0.8595319390296936,0.0,0.0,0.0,0.0,0.8595319390296936,0.0,26,7400,47.6176942,-122.3604468,2.796420601045508
12,1718211423.7489998,1,220,0,0,185,0,0,3,476176942,-1223604468,0.0,0.6000000238418579,0.8595319390296936,0.0,0.0,0.0,0.0,0.8595319390296936,0.0,26,7400,47.6176942,-122.3604468,2.7929060135051924
13,1718211424.0349998,1,220,0,0,185,0,0,3,476176978,-1223604435,0.0,0.6000000238418579,0.8555614352226257,0.0,0.0,0.0,0.0,0.8555614352226257,0.0,26,8400,47.6176978,-122.3604435,2.7882337088445417
14,1718211424.271,1,220,0,0,185,0,0,3,476176978,-1223604435,0.0,0.6000000238418579,0.8555614352226257,0.0,0.0,0.0,0.0,0.8555614352226257,0.0,26,8400,47.6176978,-122.3604435,3.587444068923884
15,1718211424.5509999,1,220,0,0,185,0,0,3,476176970,-1223604427,0.0,0.6000000238418579,0.842178463935852,0.0,0.0,0.0,0.0,0.842178463935852,0.0,26,10500,47.617697,-122.3604427,3.573342784313191
16,1718211424.806,1,220,0,0,185,0,0,3,476176970,-1223604427,0.0,0.6000000238418579,0.842178463935852,0.0,0.0,0.0,0.0,0.842178463935852,0.0,26,10500,47.617697,-122.3604427,3.616636546740109
17,1718211425.073,1,220,0,0,185,0,0,3,476176947,-1223604437,0.0,0.6000000238418579,0.8073887825012207,0.0,0.0,0.0,0.0,0.8073887825012207,0.0,26,12800,47.6176947,-122.3604437,3.604253002456412
18,1718211425.3049998,1,220,0,0,185,0,0,3,476176947,-1223604437,0.0,0.6000000238418579,0.8073887825012207,0.0,0.0,0.0,0.0,0.8073887825012207,0.0,26,12800,47.6176947,-122.3604437,3.4287673906490297
19,1718211425.5879998,1,220,0,0,185,0,0,3,476176953,-1223604421,0.0,0.6000000238418579,0.8287360668182373,0.0,0.0,0.0,0.0,0.8287360668182373,0.0,26,13700,47.6176953,-122.3604421,3.606852971112526
20,1718211425.827,1,220,0,0,185,0,0,3,476176953,-1223604421,0.0,0.6000000238418579,0.8287360668182373,0.0,0.0,0.0,0.0,0.8287360668182373,0.0,26,13700,47.6176953,-122.3604421,3.657644360853572
21,1718211426.099,1,220,0,0,185,0,0,3,476176953,-1223604421,0.0,0.6000000238418579,0.8269591331481934,0.0,0.0,0.0,0.0,0.8269591331481934,0.0,26,13700,47.6176953,-122.3604421,3.676470549564461
22,1718211426.353,1,220,0,0,185,0,0,3,476176947,-1223604413,0.0,0.6000000238418579,0.8269591331481934,0.0,0.0,0.0,0.0,0.8269591331481934,0.0,26,14500,47.6176947,-122.3604413,3.6483034639626757
23,1718211426.6529999,1,220,0,0,185,0,0,3,476176957,-1223604395,0.0,0.6000000238418579,0.8576065301895142,0.0,0.0,0.0,0.0,0.8576065301895142,0.0,26,15300,47.6176957,-122.3604395,3.6778227534540116
24,1718211426.8639998,1,220,0,0,185,0,0,3,476176957,-1223604395,0.0,0.6000000238418579,0.8576065301895142,0.0,0.0,0.0,0.0,0.8576065301895142,0.0,26,15300,47.6176957,-122.3604395,3.6596523905051206
25,1718211427.158,1,220,0,0,185,0,0,3,476176937,-1223604395,0.0,0.6000000238418579,0.8251464366912842,0.0,0.0,0.0,0.0,0.8251464366912842,0.0,26,16200,47.6176937,-122.3604395,3.6589827491554807
26,1718211427.372,1,220,0,0,185,0,0,3,476176937,-1223604395,0.0,0.6000000238418579,0.8251464366912842,0.0,0.0,0.0,0.0,0.8251464366912842,0.0,26,16200,47.6176937,-122.3604395,3.6784991478191236
27,1718211427.6399999,1,220,0,0,185,0,0,3,476176937,-1223604395,0.0,0.6000000238418579,0.8251464366912842,0.0,0.0,0.0,0.0,0.8251464366912842,0.0,26,16200,47.6176937,-122.3604395,3.6818851781900195
28,1718211428.1769998,1,220,0,0,185,0,0,3,476176925,-1223604382,0.0,0.6000000238418579,0.8513063192367554,0.0,0.0,0.0,0.0,0.8513063192367554,0.0,26,19200,47.6176925,-122.3604382,3.6771464466032695
29,1718211428.431,1,220,0,0,185,0,0,3,476176925,-1223604382,0.0,0.6000000238418579,0.8513063192367554,0.0,0.0,0.0,0.0,0.8513063192367554,0.0,26,19200,47.6176925,-122.3604382,3.6744441875167575
30,1718211428.71,1,220,0,0,185,0,0,3,476176910,-1223604375,0.0,0.6000000238418579,0.8093333840370178,0.0,0.0,0.0,0.0,0.8093333840370178,0.0,26,19100,47.617691,-122.3604375,3.668378642120456
31,1718211428.948,1,220,0,0,185,0,0,3,476176910,-1223604375,0.0,0.6000000238418579,0.8093333840370178,0.0,0.0,0.0,0.0,0.8093333840370178,0.0,26,19100,47.617691,-122.3604375,3.667033372568504
32,1718211429.231,1,220,0,0,185,0,0,3,476176905,-1223604373,0.0,0.6000000238418579,0.8189907670021057,0.0,0.0,0.0,0.0,0.8189907670021057,0.0,26,18900,47.6176905,-122.3604373,3.6690515668640775
33,1718211429.4729998,1,220,0,0,185,0,0,3,476176905,-1223604373,0.0,0.6000000238418579,0.807275652885437,0.0,0.0,0.0,0.0,0.807275652885437,0.0,26,18900,47.6176905,-122.3604373,3.687995508252083
34,1718211429.7359998,1,220,0,0,185,0,0,3,476176890,-1223604385,0.0,0.6000000238418579,0.807275652885437,0.0,0.0,0.0,0.0,0.807275652885437,0.0,26,18800,47.617689,-122.3604385,3.667705803806827
35,1718211430.017,1,220,0,0,185,0,0,3,476176867,-1223604389,0.0,0.6000000238418579,0.8048861026763916,0.0,0.0,0.0,0.0,0.8048861026763916,0.0,26,18800,47.6176867,-122.3604389,3.6825630677723797
36,1718211430.243,1,220,0,0,185,0,0,3,476176867,-1223604389,0.0,0.6000000238418579,0.8048861026763916,0.0,0.0,0.0,0.0,0.8048861026763916,0.0,26,18800,47.6176867,-122.3604389,3.648303622631656
37,1718211430.5049999,1,220,0,0,185,0,0,3,476176853,-1223604374,0.0,0.6000000238418579,0.7907835841178894,0.0,0.0,0.0,0.0,0.7907835841178894,0.0,26,18800,47.6176853,-122.3604374,3.663674591445599
38,1718211430.744,1,220,0,0,185,0,0,3,476176853,-1223604374,0.0,0.6000000238418579,0.7907835841178894,0.0,0.0,0.0,0.0,0.7907835841178894,0.0,26,18800,47.6176853,-122.3604374,3.665017397303611
39,1718211431.031,1,220,0,0,185,0,0,3,476176853,-1223604374,0.0,0.6000000238418579,0.7783139944076538,0.0,0.0,0.0,0.0,0.7783139944076538,0.0,26,18800,47.6176853,-122.3604374,3.666361187849892
40,1718211431.2789998,1,220,0,0,185,0,0,3,476176833,-1223604379,0.0,0.6000000238418579,0.7783139944076538,0.0,0.0,0.0,0.0,0.7783139944076538,0.0,26,18499,47.6176833,-122.3604379,3.680530147468961
41,1718211431.553,1,220,0,0,185,0,0,3,476176808,-1223604395,0.0,0.6000000238418579,0.7541483640670776,0.0,0.0,0.0,0.0,0.7541483640670776,0.0,26,18399,47.6176808,-122.3604395,3.683241207019728
42,1718211431.804,1,220,0,0,185,0,0,3,476176808,-1223604395,0.0,0.6000000238418579,0.7541483640670776,0.0,0.0,0.0,0.0,0.7541483640670776,0.0,26,18399,47.6176808,-122.3604395,3.6697247385346583
43,1718211432.076,1,220,0,0,185,0,0,3,476176792,-1223604397,0.0,0.6000000238418579,0.7640513181686401,0.0,0.0,0.0,0.0,0.7640513181686401,0.0,26,18399,47.6176792,-122.3604397,3.6798526832047123
44,1718211432.317,1,220,0,0,185,0,0,3,476176792,-1223604397,0.0,0.6000000238418579,0.7640513181686401,0.0,0.0,0.0,0.0,0.7640513181686401,0.0,26,18399,47.6176792,-122.3604397,3.6549706786982066
45,1718211432.589,1,220,0,0,185,0,0,3,476176772,-1223604394,0.0,0.6000000238418579,0.7632781267166138,0.0,0.0,0.0,0.0,0.7632781267166138,0.0,26,18399,47.6176772,-122.3604394,3.667033372568504
46,1718211432.8539999,1,220,0,0,185,0,0,3,476176772,-1223604394,0.0,0.6000000238418579,0.7632781267166138,0.0,0.0,0.0,0.0,0.7632781267166138,0.0,26,18399,47.6176772,-122.3604394,2.540973253075739
47,1718211433.099,1,220,0,0,185,0,0,3,476176772,-1223604394,0.0,0.6000000238418579,0.7632781267166138,0.0,0.0,0.0,0.0,0.7632781267166138,0.0,26,18399,47.6176772,-122.3604394,2.5493945095043005
48,1718211433.6339998,1,220,0,0,185,0,0,3,476176767,-1223604366,0.0,0.6000000238418579,0.8520351648330688,0.0,0.0,0.0,0.0,0.8520351648330688,0.0,26,18499,47.6176767,-122.3604366,2.544205552056229
49,1718211433.886,1,220,0,0,185,0,0,3,476176767,-1223604366,0.0,0.6000000238418579,0.8520351648330688,0.0,0.0,0.0,0.0,0.8520351648330688,0.0,26,18499,47.6176767,-122.3604366,2.456097223482031
50,1718211434.1439998,1,220,0,0,185,0,0,3,476176754,-1223604361,0.0,0.6000000238418579,0.791278064250946,0.0,0.0,0.0,0.0,0.791278064250946,0.0,26,18700,47.6176754,-122.3604361,2.4612354899808304
51,1718211434.378,1,220,0,0,185,0,0,3,476176754,-1223604361,0.0,0.6000000238418579,0.791278064250946,0.0,0.0,0.0,0.0,0.791278064250946,0.0,26,18700,47.6176754,-122.3604361,2.4663953730389307
52,1718211434.681,1,220,0,0,185,0,0,3,476176734,-1223604373,0.0,0.6000000238418579,0.8480877876281738,0.0,0.0,0.0,0.0,0.8480877876281738,0.0,26,18800,47.6176734,-122.3604373,2.465483238192211
53,1718211434.908,1,220,0,0,185,0,0,3,476176734,-1223604373,0.0,0.6000000238418579,0.8480877876281738,0.0,0.0,0.0,0.0,0.8480877876281738,0.0,26,18800,47.6176734,-122.3604373,2.463054221905688
54,1718211435.208,1,220,0,0,185,0,0,3,476176714,-1223604370,0.0,0.6000000238418579,0.9284543991088867,0.0,0.0,0.0,0.0,0.9284543991088867,0.0,26,18800,47.6176714,-122.360437,2.452783896541425
55,1718211435.471,1,220,0,0,185,0,0,3,476176714,-1223604370,0.0,0.6000000238418579,0.9284543991088867,0.0,0.0,0.0,0.0,0.9284543991088867,0.0,26,18800,47.6176714,-122.360437,2.4560972953940063
56,1718211438.1139998,1,220,0,0,185,0,0,3,476176714,-1223604370,0.0,0.6000000238418579,1.1153490543365479,0.0,0.0,0.0,0.0,1.1153490543365479,0.0,26,18800,47.6176714,-122.360437,2.4600245656177773
57,1718211438.35,1,220,0,0,185,0,0,3,476176645,-1223604352,0.0,0.6000000238418579,1.1153490543365479,0.0,0.0,0.0,0.0,1.1153490543365479,0.0,26,20000,47.6176645,-122.3604352,2.4497795095410946
58,1718211438.605,1,220,0,0,185,0,0,3,476176645,-1223604352,0.0,0.6000000238418579,1.1153490543365479,0.0,0.0,0.0,0.0,1.1153490543365479,0.0,26,20000,47.6176645,-122.3604352,2.5345330018778296
59,1718211439.174,1,220,0,0,185,0,0,3,476176645,-1223604352,0.0,0.6000000238418579,1.3561780452728271,0.0,0.0,0.0,0.0,1.3561780452728271,0.0,26,20900,47.6176645,-122.3604352,2.535818408417098
60,1718211439.405,1,220,0,0,185,0,0,3,476176591,-1223604410,0.0,0.6000000238418579,1.3561780452728271,0.0,0.0,0.0,0.0,1.3561780452728271,0.0,26,20800,47.6176591,-122.360441,2.533890748894101
61,1718211439.662,1,220,0,0,185,0,0,3,476176584,-1223604370,0.0,0.6000000238418579,1.189005970954895,0.0,0.0,0.0,0.0,1.189005970954895,0.0,26,20800,47.6176584,-122.360437,2.5271671109123317
62,1718211439.916,1,220,0,0,185,0,0,3,476176584,-1223604370,0.0,0.6000000238418579,1.189005970954895,0.0,0.0,0.0,0.0,1.189005970954895,0.0,26,20800,47.6176584,-122.360437,2.5367834151629625
63,1718211440.1959999,1,220,0,0,185,0,0,3,476176574,-1223604359,0.0,0.6000000238418579,1.1662956476211548,0.0,0.0,0.0,0.0,1.1662956476211548,0.0,26,20800,47.6176574,-122.3604359,2.532607371841029
64,1718211440.471,1,220,0,0,185,0,0,3,476176574,-1223604359,0.0,0.6000000238418579,1.1662956476211548,0.0,0.0,0.0,0.0,1.1662956476211548,0.0,26,20800,47.6176574,-122.3604359,2.539037674584401
65,1718211440.7319999,1,220,0,0,185,0,0,3,476176562,-1223604381,0.0,0.6000000238418579,1.1581710577011108,0.0,0.0,0.0,0.0,1.1581710577011108,0.0,26,20800,47.6176562,-122.3604381,2.5493945095043005
66,1718211440.984,1,220,0,0,185,0,0,3,476176562,-1223604381,0.0,0.6000000238418579,1.1581710577011108,0.0,0.0,0.0,0.0,1.1581710577011108,0.0,26,20800,47.6176562,-122.3604381,3.6343812327362617
67,1718211441.263,1,220,0,0,185,0,0,3,476176550,-1223604386,0.0,0.6000000238418579,1.176827073097229,0.0,0.0,0.0,0.0,1.176827073097229,0.0,26,20699,47.617655,-122.3604386,3.629105479521808
68,1718211441.5249999,1,220,0,0,185,0,0,3,476176550,-1223604386,0.0,0.6000000238418579,1.1795448064804077,0.0,0.0,0.0,0.0,1.1795448064804077,0.0,26,20699,47.617655,-122.3604386,3.644979048972749
69,1718211441.773,1,220,0,0,185,0,0,3,476176543,-1223604382,0.0,0.6000000238418579,1.1795448064804077,0.0,0.0,0.0,0.0,1.1795448064804077,0.0,26,20699,47.6176543,-122.3604382,3.657644520336085
70,1718211442.037,1,220,0,0,185,0,0,3,476176526,-1223604401,0.0,0.6000000238418579,1.1701738834381104,0.0,0.0,0.0,0.0,1.1701738834381104,0.0,26,20800,47.6176526,-122.3604401,3.64365104206166
71,1718211442.2919998,1,220,0,0,185,0,0,3,476176526,-1223604401,0.0,0.6000000238418579,1.1701738834381104,0.0,0.0,0.0,0.0,1.1701738834381104,0.0,26,20800,47.6176526,-122.3604401,3.6284469694282677
72,1718211442.5649998,1,220,0,0,185,0,0,3,476176515,-1223604407,0.0,0.6000000238418579,1.1704628467559814,0.0,0.0,0.0,0.0,1.1704628467559814,0.0,26,20400,47.6176515,-122.3604407,3.652967941084702
73,1718211442.8049998,1,220,0,0,185,0,0,3,476176515,-1223604407,0.0,0.6000000238418579,1.1704628467559814,0.0,0.0,0.0,0.0,1.1704628467559814,0.0,26,20400,47.6176515,-122.3604407,3.642323686188188
74,1718211443.085,1,220,0,0,185,0,0,3,476176510,-1223604406,0.0,0.6000000238418579,1.0950239896774292,0.0,0.0,0.0,0.0,1.0950239896774292,0.0,26,19200,47.617651,-122.3604406,3.681207538134796
75,1718211443.316,1,220,0,0,185,0,0,3,476176510,-1223604406,0.0,0.6000000238418579,1.0950239896774292,0.0,0.0,0.0,0.0,1.0950239896774292,0.0,26,19200,47.617651,-122.3604406,3.6683784817005
76,1718211443.6169999,1,220,0,0,185,0,0,3,476176511,-1223604395,0.0,0.6000000238418579,1.0605512857437134,0.0,0.0,0.0,0.0,1.0605512857437134,0.0,26,19100,47.6176511,-122.3604395,3.66568924951545
77,1718211443.8609998,1,220,0,0,185,0,0,3,476176511,-1223604395,0.0,0.6000000238418579,1.0605512857437134,0.0,0.0,0.0,0.0,1.0605512857437134,0.0,26,19100,47.6176511,-122.3604395,3.668378642120456
78,1718211444.092,1,220,0,0,185,0,0,3,476176511,-1223604395,0.0,0.6000000238418579,1.0605512857437134,0.0,0.0,0.0,0.0,1.0605512857437134,0.0,26,19100,47.6176511,-122.3604395,3.6771464466032695
79,1718211444.642,1,220,0,0,185,0,0,3,476176503,-1223604384,0.0,0.6000000238418579,1.1120525598526,0.0,0.0,0.0,0.0,1.1120525598526,0.0,26,19300,47.6176503,-122.3604384,3.6757949009535342
80,1718211444.8939998,1,220,0,0,185,0,0,3,476176503,-1223604384,0.0,0.6000000238418579,1.1120525598526,0.0,0.0,0.0,0.0,1.1120525598526,0.0,26,19300,47.6176503,-122.3604384,3.673094627218645
81,1718211445.174,1,220,0,0,185,0,0,3,476176498,-1223604392,0.0,0.6000000238418579,1.0882073640823364,0.0,0.0,0.0,0.0,1.0882073640823364,0.0,26,19300,47.6176498,-122.3604392,3.6805299859844625
82,1718211445.391,1,220,0,0,185,0,0,3,476176498,-1223604392,0.0,0.6000000238418579,1.0882073640823364,0.0,0.0,0.0,0.0,1.0882073640823364,0.0,26,19300,47.6176498,-122.3604392,3.6757949009535342
83,1718211445.687,1,220,0,0,185,0,0,3,476176495,-1223604388,0.0,0.6000000238418579,1.0721231698989868,0.0,0.0,0.0,0.0,1.0721231698989868,0.0,26,18900,47.6176495,-122.3604388,3.6596522308474633
84,1718211445.9039998,1,220,0,0,185,0,0,3,476176495,-1223604388,0.0,0.6000000238418579,1.0721231698989868,0.0,0.0,0.0,0.0,1.0721231698989868,0.0,26,18900,47.6176495,-122.3604388,3.667033372568504
85,1718211446.184,1,220,0,0,185,0,0,3,476176489,-1223604411,0.0,0.6000000238418579,1.062476634979248,0.0,0.0,0.0,0.0,1.062476634979248,0.0,26,18900,47.6176489,-122.3604411,3.6549708379476464
86,1718211446.4399998,1,220,0,0,185,0,0,3,476176489,-1223604411,0.0,0.6000000238418579,1.062476634979248,0.0,0.0,0.0,0.0,1.062476634979248,0.0,26,18900,47.6176489,-122.3604411,3.6907177432958362
87,1718211446.715,1,220,0,0,185,0,0,3,476176477,-1223604428,0.0,0.6000000238418579,1.0549631118774414,0.0,0.0,0.0,0.0,1.0549631118774414,0.0,26,18900,47.6176477,-122.3604428,3.687315617361919
88,1718211446.964,1,220,0,0,185,0,0,3,476176477,-1223604428,0.0,0.6000000238418579,1.058129072189331,0.0,0.0,0.0,0.0,1.058129072189331,0.0,26,18900,47.6176477,-122.3604428,3.669724899072381
89,1718211447.214,1,220,0,0,185,0,0,3,476176472,-1223604433,0.0,0.699999988079071,1.058129072189331,0.0,0.0,0.0,0.0,1.058129072189331,0.0,25,18900,47.6176472,-122.3604433,3.658313512363139
90,1718211447.4819999,1,220,0,0,185,0,0,3,476176462,-1223604439,0.0,0.699999988079071,1.0464423894882202,0.0,0.0,0.0,0.0,1.0464423894882202,0.0,25,18599,47.6176462,-122.3604439,3.671745897182634
91,1718211447.7259998,1,220,0,0,185,0,0,3,476176462,-1223604439,0.0,0.699999988079071,1.0464423894882202,0.0,0.0,0.0,0.0,1.0464423894882202,0.0,25,18599,47.6176462,-122.3604439,3.6791759523892646
92,1718211448.0059998,1,220,0,0,185,0,0,3,476176462,-1223604435,0.0,0.6000000238418579,1.03727388381958,0.0,0.0,0.0,0.0,1.03727388381958,0.0,25,18100,47.6176462,-122.3604435,3.6476382862595407
93,1718211448.27,1,220,0,0,185,0,0,3,476176462,-1223604435,0.0,0.6000000238418579,1.03727388381958,0.0,0.0,0.0,0.0,1.03727388381958,0.0,25,18100,47.6176462,-122.3604435,3.6677059641679555
94,1718211448.539,1,220,0,0,185,0,0,3,476176462,-1223604435,0.0,0.6000000238418579,1.010123610496521,0.0,0.0,0.0,0.0,1.010123610496521,0.0,25,18100,47.6176462,-122.3604435,3.635702489855292
95,1718211448.7879999,1,220,0,0,185,0,0,3,476176457,-1223604431,0.0,0.6000000238418579,1.010123610496521,0.0,0.0,0.0,0.0,1.010123610496521,0.0,25,18000,47.6176457,-122.3604431,3.6536353824671313
96,1718211449.036,1,220,0,0,185,0,0,3,476176448,-1223604478,0.0,0.6000000238418579,0.9569377899169922,0.0,0.0,0.0,0.0,0.9569377899169922,0.0,25,18499,47.6176448,-122.3604478,3.6556386928892524
97,1718211449.2849998,1,220,0,0,185,0,0,3,476176448,-1223604478,0.0,0.6000000238418579,0.9569377899169922,0.0,0.0,0.0,0.0,0.9569377899169922,0.0,25,18499,47.6176448,-122.3604478,3.6589827491554807
98,1718211449.5419998,1,220,0,0,185,0,0,3,476176448,-1223604478,0.0,0.6000000238418579,0.9569377899169922,0.0,0.0,0.0,0.0,0.9569377899169922,0.0,25,18499,47.6176448,-122.3604478,3.6589829087547296
99,1718211450.109,1,220,0,0,185,0,0,3,476176461,-1223604490,0.0,0.699999988079071,0.9356195330619812,0.0,0.0,0.0,0.0,0.9356195330619812,0.0,25,19200,47.6176461,-122.360449,3.639672505282523
100,1718211450.3409998,1,220,0,0,185,0,0,3,476176461,-1223604490,0.0,0.699999988079071,0.9356195330619812,0.0,0.0,0.0,0.0,0.9356195330619812,0.0,25,19200,47.6176461,-122.360449,3.6656890893306247
101,1718211450.61,1,220,0,0,185,0,0,3,476176460,-1223604493,0.0,0.699999988079071,0.9033313393592834,0.0,0.0,0.0,0.0,0.9033313393592834,0.0,25,19100,47.617646,-122.3604493,3.629764071618172
102,1718211450.8739998,1,220,0,0,185,0,0,3,476176460,-1223604493,0.0,0.699999988079071,0.9033313393592834,0.0,0.0,0.0,0.0,0.9033313393592834,0.0,25,19100,47.617646,-122.3604493,3.6483034639626757
103,1718211451.1399999,1,220,0,0,185,0,0,3,476176454,-1223604491,0.0,0.699999988079071,0.909247875213623,0.0,0.0,0.0,0.0,0.909247875213623,0.0,25,18900,47.6176454,-122.3604491,3.650967555966238
104,1718211451.405,1,220,0,0,185,0,0,3,476176454,-1223604491,0.0,0.699999988079071,0.909247875213623,0.0,0.0,0.0,0.0,0.909247875213623,0.0,25,18900,47.6176454,-122.3604491,3.644314924534089
105,1718211451.658,1,220,0,0,185,0,0,3,476176454,-1223604495,0.0,0.699999988079071,0.9160982966423035,0.0,0.0,0.0,0.0,0.9160982966423035,0.0,25,18800,47.6176454,-122.3604495,3.646973033962953
106,1718211451.911,1,220,0,0,185,0,0,3,476176454,-1223604495,0.0,0.699999988079071,0.9160982966423035,0.0,0.0,0.0,0.0,0.9160982966423035,0.0,25,18800,47.6176454,-122.3604495,3.6363636363636362
107,1718211452.181,1,220,0,0,185,0,0,3,476176461,-1223604491,0.0,0.699999988079071,0.9095683097839355,0.0,0.0,0.0,0.0,0.9095683097839355,0.0,25,18800,47.6176461,-122.3604491,3.6264731857783903
108,1718211452.4299998,1,220,0,0,185,0,0,3,476176461,-1223604491,0.0,0.699999988079071,0.9095683097839355,0.0,0.0,0.0,0.0,0.9095683097839355,0.0,25,18800,47.6176461,-122.3604491,3.625815787243145
109,1718211452.7089999,1,220,0,0,185,0,0,3,476176476,-1223604479,0.0,0.699999988079071,0.9032917022705078,0.0,0.0,0.0,0.0,0.9032917022705078,0.0,25,18800,47.6176476,-122.3604479,3.6596523905051206
110,1718211452.938,1,220,0,0,185,0,0,3,476176476,-1223604479,0.0,0.699999988079071,0.9032917022705078,0.0,0.0,0.0,0.0,0.9032917022705078,0.0,25,18800,47.6176476,-122.3604479,3.644979048972749
111,1718211453.2359998,1,220,0,0,185,0,0,3,476176481,-1223604472,0.0,0.699999988079071,0.9138669967651367,0.0,0.0,0.0,0.0,0.9138669967651367,0.0,25,18800,47.6176481,-122.3604472,3.6483034639626757
112,1718211453.488,1,220,0,0,185,0,0,3,476176481,-1223604472,0.0,0.699999988079071,0.9120757579803467,0.0,0.0,0.0,0.0,0.9120757579803467,0.0,25,18800,47.6176481,-122.3604472,3.649635023793565
113,1718211453.748,1,220,0,0,185,0,0,3,476176483,-1223604470,0.0,0.699999988079071,0.9120757579803467,0.0,0.0,0.0,0.0,0.9120757579803467,0.0,26,18800,47.6176483,-122.360447,3.6396723473634096
114,1718211454.027,1,220,0,0,185,0,0,3,476176483,-1223604470,0.0,0.699999988079071,0.89776611328125,0.0,0.0,0.0,0.0,0.89776611328125,0.0,26,18800,47.6176483,-122.360447,3.639672505282523
115,1718211454.2719998,1,220,0,0,185,0,0,3,476176485,-1223604479,0.0,0.699999988079071,0.89776611328125,0.0,0.0,0.0,0.0,0.89776611328125,0.0,26,19100,47.6176485,-122.3604479,3.625158627008024
116,1718211454.536,1,220,0,0,185,0,0,3,476176499,-1223604440,0.0,0.699999988079071,0.8746660947799683,0.0,0.0,0.0,0.0,0.8746660947799683,0.0,26,19300,47.6176499,-122.360444,3.642987243216351
117,1718211454.8,1,220,0,0,185,0,0,3,476176499,-1223604440,0.0,0.699999988079071,0.8746660947799683,0.0,0.0,0.0,0.0,0.8746660947799683,0.0,26,19300,47.6176499,-122.360444,3.6350418987514006
118,1718211455.0579998,1,220,0,0,185,0,0,3,476176499,-1223604440,0.0,0.699999988079071,0.8746660947799683,0.0,0.0,0.0,0.0,0.8746660947799683,0.0,26,19300,47.6176499,-122.360444,3.647638127648428
119,1718211455.574,1,220,0,0,185,0,0,3,476176503,-1223604466,0.0,0.699999988079071,0.8957262635231018,0.0,0.0,0.0,0.0,0.8957262635231018,0.0,26,19399,47.6176503,-122.3604466,3.6523009025292525
120,1718211455.8279998,1,220,0,0,185,0,0,3,476176503,-1223604466,0.0,0.699999988079071,0.8957262635231018,0.0,0.0,0.0,0.0,0.8957262635231018,0.0,26,19399,47.6176503,-122.3604466,3.6357026474301026
121,1718211456.092,1,220,0,0,185,0,0,3,476176487,-1223604474,0.0,0.699999988079071,0.891192615032196,0.0,0.0,0.0,0.0,0.891192615032196,0.0,26,19399,47.6176487,-122.3604474,3.6643457913225075
122,1718211456.3539999,1,220,0,0,185,0,0,3,476176487,-1223604474,0.0,0.699999988079071,0.891192615032196,0.0,0.0,0.0,0.0,0.891192615032196,0.0,26,19399,47.6176487,-122.3604474,3.6697247385346583
123,1718211456.635,1,220,0,0,185,0,0,3,476176479,-1223604470,0.0,0.699999988079071,0.8677307367324829,0.0,0.0,0.0,0.0,0.8677307367324829,0.0,26,19399,47.6176479,-122.360447,3.6656890893306247
124,1718211456.8999999,1,220,0,0,185,0,0,3,476176479,-1223604470,0.0,0.699999988079071,0.8677307367324829,0.0,0.0,0.0,0.0,0.8677307367324829,0.0,26,19399,47.6176479,-122.360447,3.6751195006335484
125,1718211457.175,1,220,0,0,185,0,0,3,476176483,-1223604502,0.0,0.699999988079071,0.8562692403793335,0.0,0.0,0.0,0.0,0.8562692403793335,0.0,26,19300,47.6176483,-122.3604502,3.6390101551304133
126,1718211457.401,1,220,0,0,185,0,0,3,476176483,-1223604502,0.0,0.699999988079071,0.8562692403793335,0.0,0.0,0.0,0.0,0.8562692403793335,0.0,26,19300,47.6176483,-122.3604502,3.6616624663324324
127,1718211457.6829998,1,220,0,0,185,0,0,3,476176480,-1223604514,0.0,0.699999988079071,0.9199780821800232,0.0,0.0,0.0,0.0,0.9199780821800232,0.0,26,19200,47.617648,-122.3604514,3.6563071106749936
128,1718211457.9129999,1,220,0,0,185,0,0,3,476176480,-1223604514,0.0,0.699999988079071,0.9199780821800232,0.0,0.0,0.0,0.0,0.9199780821800232,0.0,26,19200,47.617648,-122.3604514,3.6724200579804553
129,1718211458.185,1,220,0,0,185,0,0,3,476176465,-1223604522,0.0,0.699999988079071,0.9646148085594177,0.0,0.0,0.0,0.0,0.9646148085594177,0.0,26,19100,47.6176465,-122.3604522,3.209242560791476
130,1718211458.439,1,220,0,0,185,0,0,3,476176465,-1223604522,0.0,0.699999988079071,0.9646148085594177,0.0,0.0,0.0,0.0,0.9646148085594177,0.0,26,19100,47.6176465,-122.3604522,3.202049285158428
131,1718211458.694,1,220,0,0,185,0,0,3,476176455,-1223604524,0.0,0.699999988079071,0.9669976830482483,0.0,0.0,0.0,0.0,0.9669976830482483,0.0,26,19100,47.6176455,-122.3604524,3.2133676210713604
132,1718211458.938,1,220,0,0,185,0,0,3,476176455,-1223604524,0.0,0.699999988079071,0.9669976830482483,0.0,0.0,0.0,0.0,0.9669976830482483,0.0,26,19100,47.6176455,-122.3604524,3.210272863365795
133,1718211459.204,1,220,0,0,185,0,0,3,476176459,-1223604518,0.0,0.699999988079071,1.0004178285598755,0.0,0.0,0.0,0.0,1.0004178285598755,0.0,26,19000,47.6176459,-122.3604518,3.231539885495132
134,1718211459.4689999,1,220,0,0,185,0,0,3,476176459,-1223604518,0.0,0.699999988079071,1.0004178285598755,0.0,0.0,0.0,0.0,1.0004178285598755,0.0,26,19000,47.6176459,-122.3604518,3.234152644025024
135,1718211459.768,1,220,0,0,185,0,0,3,476176457,-1223604514,0.0,0.699999988079071,1.0324838161468506,0.0,0.0,0.0,0.0,1.0324838161468506,0.0,26,18700,47.6176457,-122.3604514,3.238866421771852
136,1718211459.998,1,220,0,0,185,0,0,3,476176457,-1223604514,0.0,0.699999988079071,1.0324838161468506,0.0,0.0,0.0,0.0,1.0324838161468506,0.0,26,18700,47.6176457,-122.3604514,3.1857280007777655
137,1718211460.27,1,220,0,0,185,0,0,3,476176448,-1223604513,0.0,0.699999988079071,1.0684318542480469,0.0,0.0,0.0,0.0,1.0684318542480469,0.0,26,18299,47.6176448,-122.3604513,3.223207006839443
138,1718211460.504,1,220,0,0,185,0,0,3,476176448,-1223604513,0.0,0.699999988079071,1.0684318542480469,0.0,0.0,0.0,0.0,1.0684318542480469,0.0,26,18299,47.6176448,-122.3604513,3.1892839310481778
139,1718211461.806,1,220,0,0,185,0,0,3,476176461,-1223604511,0.0,0.699999988079071,1.1507824659347534,0.0,0.0,0.0,0.0,1.1507824659347534,0.0,26,18100,47.6176461,-122.3604511,3.1969309248483757
140,1718211462.074,1,220,0,0,185,0,0,3,476176461,-1223604511,0.0,0.699999988079071,1.111916422843933,0.0,0.0,0.0,0.0,1.111916422843933,0.0,26,18100,47.6176461,-122.3604511,3.1877590412760934
141,1718211462.316,1,220,0,0,185,0,0,3,476176463,-1223604510,0.0,0.699999988079071,1.111916422843933,0.0,0.0,0.0,0.0,1.111916422843933,0.0,26,18200,47.6176463,-122.360451,3.1974421097380326
142,1718211462.5839999,1,220,0,0,185,0,0,3,476176459,-1223604567,0.0,0.699999988079071,1.1026054620742798,0.0,0.0,0.0,0.0,1.1026054620742798,0.0,26,18200,47.6176459,-122.3604567,3.1776295336606015
143,1718211462.824,1,220,0,0,185,0,0,3,476176459,-1223604567,0.0,0.699999988079071,1.1026054620742798,0.0,0.0,0.0,0.0,1.1026054620742798,0.0,26,18200,47.6176459,-122.3604567,3.180155810274768
144,1718211463.0839999,1,220,0,0,185,0,0,3,476176459,-1223604567,0.0,0.699999988079071,1.1026054620742798,0.0,0.0,0.0,0.0,1.1026054620742798,0.0,26,18200,47.6176459,-122.3604567,3.193357809908178
145,1718211463.35,1,220,0,0,185,0,0,3,476176459,-1223604567,0.0,0.699999988079071,1.1026054620742798,0.0,0.0,0.0,0.0,1.1026054620742798,0.0,26,18200,47.6176459,-122.3604567,3.213883953176936
146,1718211463.679,1,220,0,0,185,0,0,3,476176460,-1223604601,0.0,0.699999988079071,1.1179492473602295,0.0,0.0,0.0,0.0,1.1179492473602295,0.0,26,18700,47.617646,-122.3604601,3.1882671758200005
147,1718211463.888,1,220,0,0,185,0,0,3,476176460,-1223604601,0.0,0.699999988079071,1.1179492473602295,0.0,0.0,0.0,0.0,1.1179492473602295,0.0,26,18700,47.617646,-122.3604601,3.204101319113268
148,1718211464.184,1,220,0,0,185,0,0,3,476176462,-1223604630,0.0,0.699999988079071,1.0200332403182983,0.0,0.0,0.0,0.0,1.0200332403182983,0.0,26,18499,47.6176462,-122.360463,2.9377202911648337
149,1718211464.441,1,220,0,0,185,0,0,3,476176462,-1223604630,0.0,0.699999988079071,1.0200332403182983,0.0,0.0,0.0,0.0,1.0200332403182983,0.0,26,18499,47.6176462,-122.360463,3.474635137977503
150,1718211464.7129998,1,220,0,0,185,0,0,3,476176467,-1223604642,0.0,0.699999988079071,1.07832670211792,0.0,0.0,0.0,0.0,1.07832670211792,0.0,26,18299,47.6176467,-122.3604642,3.4837136769332284
151,1718211464.949,1,220,0,0,185,0,0,3,476176467,-1223604642,0.0,0.699999988079071,1.07832670211792,0.0,0.0,0.0,0.0,1.07832670211792,0.0,26,18299,47.6176467,-122.3604642,3.4620045303244744
152,1718211465.2319999,1,220,0,0,185,0,0,3,476176458,-1223604658,0.0,0.699999988079071,1.0712581872940063,0.0,0.0,0.0,0.0,1.0712581872940063,0.0,26,18499,47.6176458,-122.3604658,3.472825105298088
153,1718211465.493,1,220,0,0,185,0,0,3,476176458,-1223604658,0.0,0.699999988079071,1.0728132724761963,0.0,0.0,0.0,0.0,1.0728132724761963,0.0,26,18499,47.6176458,-122.3604658,3.4464932090352054
154,1718211465.7319999,1,220,0,0,185,0,0,3,476176451,-1223604663,0.0,0.699999988079071,1.0728132724761963,0.0,0.0,0.0,0.0,1.0728132724761963,0.0,26,18800,47.6176451,-122.3604663,3.453038641056922
155,1718211465.991,1,220,0,0,185,0,0,3,476176451,-1223604663,0.0,0.699999988079071,1.0728132724761963,0.0,0.0,0.0,0.0,1.0728132724761963,0.0,26,18800,47.6176451,-122.3604663,3.4710169574280916
156,1718211466.271,1,220,0,0,185,0,0,3,476176460,-1223604656,0.0,0.699999988079071,1.0945112705230713,0.0,0.0,0.0,0.0,1.0945112705230713,0.0,26,18900,47.617646,-122.3604656,3.5198874120485306
157,1718211466.5119998,1,220,0,0,185,0,0,3,476176460,-1223604656,0.0,0.699999988079071,1.0945112705230713,0.0,0.0,0.0,0.0,1.0945112705230713,0.0,26,18900,47.617646,-122.3604656,3.4837136769332284
158,1718211467.312,1,220,0,0,185,0,0,3,476176452,-1223604673,0.0,0.699999988079071,1.139539361000061,0.0,0.0,0.0,0.0,1.139539361000061,0.0,26,18299,47.6176452,-122.3604673,3.5130863451356324
159,1718211467.562,1,220,0,0,185,0,0,3,476176445,-1223604679,0.0,0.699999988079071,1.099650502204895,0.0,0.0,0.0,0.0,1.099650502204895,0.0,26,18399,47.6176445,-122.3604679,3.4855350806060903
160,1718211467.8149998,1,220,0,0,185,0,0,3,476176445,-1223604679,0.0,0.699999988079071,1.099650502204895,0.0,0.0,0.0,0.0,1.099650502204895,0.0,26,18399,47.6176445,-122.3604679,3.5130861980102077
161,1718211468.093,1,220,0,0,185,0,0,3,476176447,-1223604678,0.0,0.699999988079071,1.1187658309936523,0.0,0.0,0.0,0.0,1.1187658309936523,0.0,25,18399,47.6176447,-122.3604678,3.493449694368212
162,1718211468.343,1,220,0,0,185,0,0,3,476176447,-1223604678,0.0,0.699999988079071,1.1187658309936523,0.0,0.0,0.0,0.0,1.1187658309936523,0.0,25,18399,47.6176447,-122.3604678,3.525471471366215
163,1718211468.6269999,1,220,0,0,185,0,0,3,476176450,-1223604674,0.0,0.699999988079071,1.0509454011917114,0.0,0.0,0.0,0.0,1.0509454011917114,0.0,25,18200,47.617645,-122.3604674,3.5155564039738665
164,1718211468.876,1,220,0,0,185,0,0,3,476176450,-1223604674,0.0,0.699999988079071,1.0509454011917114,0.0,0.0,0.0,0.0,1.0509454011917114,0.0,25,18200,47.617645,-122.3604674,3.5192679379247473
165,1718211469.112,1,220,0,0,185,0,0,3,476176451,-1223604679,0.0,0.699999988079071,1.0535982847213745,0.0,0.0,0.0,0.0,1.0535982847213745,0.0,25,18200,47.6176451,-122.3604679,3.508156479036416
166,1718211469.3609998,1,220,0,0,185,0,0,3,476176451,-1223604679,0.0,0.699999988079071,1.0535982847213745,0.0,0.0,0.0,0.0,1.0535982847213745,0.0,25,18200,47.6176451,-122.3604679,3.5155562566414806
167,1718211469.629,1,220,0,0,185,0,0,3,476176448,-1223604680,0.0,0.699999988079071,1.0747179985046387,0.0,0.0,0.0,0.0,1.0747179985046387,0.0,25,18299,47.6176448,-122.360468,3.5273368132073295
168,1718211469.8769999,1,220,0,0,185,0,0,3,476176448,-1223604680,0.0,0.699999988079071,1.0747179985046387,0.0,0.0,0.0,0.0,1.0747179985046387,0.0,25,18299,47.6176448,-122.360468,3.693444162676586
169,1718211470.179,1,220,0,0,185,0,0,3,476176449,-1223604679,0.0,0.699999988079071,1.032724380493164,0.0,0.0,0.0,0.0,1.032724380493164,0.0,25,18399,47.6176449,-122.3604679,3.6866359771046087
170,1718211470.406,1,220,0,0,185,0,0,3,476176449,-1223604679,0.0,0.699999988079071,1.032724380493164,0.0,0.0,0.0,0.0,1.032724380493164,0.0,25,18399,47.6176449,-122.3604679,3.6663610276063356
171,1718211470.674,1,220,0,0,185,0,0,3,476176454,-1223604677,0.0,0.699999988079071,1.0379217863082886,0.0,0.0,0.0,0.0,1.0379217863082886,0.0,25,18499,47.6176454,-122.3604677,3.690717905675555
172,1718211470.905,1,220,0,0,185,0,0,3,476176454,-1223604677,0.0,0.699999988079071,1.0379217863082886,0.0,0.0,0.0,0.0,1.0379217863082886,0.0,25,18499,47.6176454,-122.3604677,3.6556388521969088
173,1718211471.182,1,220,0,0,185,0,0,3,476176460,-1223604682,0.0,0.699999988079071,1.081480622291565,0.0,0.0,0.0,0.0,1.081480622291565,0.0,24,18599,47.617646,-122.3604682,3.6954913779439207
174,1718211471.415,1,220,0,0,185,0,0,3,476176460,-1223604682,0.0,0.699999988079071,1.081480622291565,0.0,0.0,0.0,0.0,1.081480622291565,0.0,24,18599,47.617646,-122.3604682,3.6737692834273554
175,1718211471.692,1,220,0,0,185,0,0,3,476176461,-1223604684,0.0,0.699999988079071,1.0924569368362427,0.0,0.0,0.0,0.0,1.0924569368362427,0.0,24,18700,47.6176461,-122.3604684,3.6737692834273554
176,1718211471.96,1,220,0,0,185,0,0,3,476176461,-1223604684,0.0,0.699999988079071,1.0924569368362427,0.0,0.0,0.0,0.0,1.0924569368362427,0.0,24,18700,47.6176461,-122.3604684,3.6324009893894638
177,1718211472.182,1,220,0,0,185,0,0,3,476176461,-1223604684,0.0,0.699999988079071,1.0924569368362427,0.0,0.0,0.0,0.0,1.0924569368362427,0.0,24,18700,47.6176461,-122.3604684,3.6636747514544123
178,1718211472.727,1,220,0,0,185,0,0,3,476176461,-1223604683,0.0,0.699999988079071,1.1955349445343018,0.0,0.0,0.0,0.0,1.1955349445343018,0.0,24,18900,47.6176461,-122.3604683,3.644979048972749
179,1718211472.987,1,220,0,0,185,0,0,3,476176461,-1223604683,0.0,0.699999988079071,1.1955349445343018,0.0,0.0,0.0,0.0,1.1955349445343018,0.0,24,18900,47.6176461,-122.3604683,3.660992089242827
180,1718211473.27,1,220,0,0,185,0,0,3,476176469,-1223604680,0.0,0.699999988079071,1.2596478462219238,0.0,0.0,0.0,0.0,1.2596478462219238,0.0,24,19000,47.6176469,-122.360468,3.6569756135158613
181,1718211473.5119998,1,220,0,0,185,0,0,3,476176469,-1223604680,0.0,0.699999988079071,1.2596478462219238,0.0,0.0,0.0,0.0,1.2596478462219238,0.0,24,19000,47.6176469,-122.360468,3.6596523905051206
182,1718211473.814,1,220,0,0,185,0,0,3,476176478,-1223604640,0.0,0.699999988079071,1.306383490562439,0.0,0.0,0.0,0.0,1.306383490562439,0.0,24,19000,47.6176478,-122.360464,3.6456434155099497
183,1718211474.039,1,220,0,0,185,0,0,3,476176478,-1223604640,0.0,0.699999988079071,1.306383490562439,0.0,0.0,0.0,0.0,1.306383490562439,0.0,24,19000,47.6176478,-122.360464,3.6324009893894638
184,1718211474.32,1,220,0,0,185,0,0,3,476176470,-1223604664,0.0,0.699999988079071,1.513174295425415,0.0,0.0,0.0,0.0,1.513174295425415,0.0,24,19000,47.617647,-122.3604664,3.6350418987514006
185,1718211474.556,1,220,0,0,185,0,0,3,476176470,-1223604664,0.0,0.699999988079071,1.513174295425415,0.0,0.0,0.0,0.0,1.513174295425415,0.0,24,19000,47.617647,-122.3604664,3.6370248656830646
186,1718211474.8669999,1,220,0,0,185,0,0,3,476176463,-1223604677,0.0,0.699999988079071,1.6906018257141113,0.0,0.0,0.0,0.0,1.6906018257141113,0.0,24,19100,47.6176463,-122.3604677,3.6496351825783884
187,1718211475.0879998,1,220,0,0,185,0,0,3,476176463,-1223604677,0.0,0.699999988079071,1.6906018257141113,0.0,0.0,0.0,0.0,1.6906018257141113,0.0,24,19100,47.6176463,-122.3604677,3.629764071618172
188,1718211475.3639998,1,220,0,0,185,0,0,3,476176463,-1223604678,0.0,0.699999988079071,1.7625337839126587,0.0,0.0,0.0,0.0,1.7625337839126587,0.0,24,19000,47.6176463,-122.3604678,3.629764071618172
189,1718211475.642,1,220,0,0,185,0,0,3,476176484,-1223604645,0.0,0.699999988079071,1.8644739389419556,0.0,0.0,0.0,0.0,1.8644739389419556,0.0,24,19000,47.6176484,-122.3604645,3.6463081827735553
190,1718211475.875,1,220,0,0,185,0,0,3,476176484,-1223604645,0.0,0.699999988079071,1.8644739389419556,0.0,0.0,0.0,0.0,1.8644739389419556,0.0,24,19000,47.6176484,-122.3604645,3.667033372568504
191,1718211476.139,1,220,0,0,185,0,0,3,476176484,-1223604645,0.0,0.699999988079071,1.9701553583145142,0.0,0.0,0.0,0.0,1.9701553583145142,0.0,24,19000,47.6176484,-122.3604645,3.660992089242827
192,1718211476.391,1,220,0,0,185,0,0,3,476176482,-1223604632,0.0,0.699999988079071,1.9701553583145142,0.0,0.0,0.0,0.0,1.9701553583145142,0.0,24,19100,47.6176482,-122.3604632,3.6523009025292525
193,1718211476.688,1,220,0,0,185,0,0,3,476176482,-1223604627,0.0,0.699999988079071,2.0477161407470703,0.0,0.0,0.0,0.0,2.0477161407470703,0.0,24,19100,47.6176482,-122.3604627,3.6609922490174127
194,1718211476.9169998,1,220,0,0,185,0,0,3,476176482,-1223604627,0.0,0.699999988079071,2.0477161407470703,0.0,0.0,0.0,0.0,2.0477161407470703,0.0,24,19100,47.6176482,-122.3604627,3.6556388521969088
195,1718211477.191,1,220,0,0,185,0,0,3,476176476,-1223604618,0.0,0.699999988079071,2.0026700496673584,0.0,0.0,0.0,0.0,2.0026700496673584,0.0,24,19200,47.6176476,-122.3604618,3.644314924534089
196,1718211477.4399998,1,220,0,0,185,0,0,3,476176476,-1223604618,0.0,0.699999988079071,2.0026700496673584,0.0,0.0,0.0,0.0,2.0026700496673584,0.0,24,19200,47.6176476,-122.3604618,3.673094466385959
197,1718211477.692,1,220,0,0,185,0,0,3,476176476,-1223604618,0.0,0.699999988079071,2.0026700496673584,0.0,0.0,0.0,0.0,2.0026700496673584,0.0,24,19200,47.6176476,-122.3604618,3.6370248656830646
198,1718211478.237,1,220,0,0,185,0,0,3,476176460,-1223604616,0.0,0.699999988079071,2.142072916030884,0.0,0.0,0.0,0.0,2.142072916030884,0.0,24,18700,47.617646,-122.3604616,3.667705803806827
199,1718211478.472,1,220,0,0,185,0,0,3,476176460,-1223604616,0.0,0.699999988079071,2.142072916030884,0.0,0.0,0.0,0.0,2.142072916030884,0.0,24,18700,47.617646,-122.3604616,3.671071983856156
200,1718211478.724,1,220,0,0,185,0,0,3,476176448,-1223604612,0.0,0.699999988079071,1.9209765195846558,0.0,0.0,0.0,0.0,1.9209765195846558,0.0,24,19100,47.6176448,-122.3604612,3.6503012476920196
201,1718211478.975,1,220,0,0,185,0,0,3,476176448,-1223604612,0.0,0.699999988079071,1.9209765195846558,0.0,0.0,0.0,0.0,1.9209765195846558,0.0,24,19100,47.6176448,-122.3604612,3.6456434155099497
202,1718211479.29,1,220,0,0,185,0,0,3,476176438,-1223604635,0.0,0.699999988079071,1.8374093770980835,0.0,0.0,0.0,0.0,1.8374093770980835,0.0,24,19300,47.6176438,-122.3604635,3.639010312992069
203,1718211479.5019999,1,220,0,0,185,0,0,3,476176438,-1223604635,0.0,0.699999988079071,1.8374093770980835,0.0,0.0,0.0,0.0,1.8374093770980835,0.0,24,19300,47.6176438,-122.3604635,3.642987243216351
204,1718211479.791,1,220,0,0,185,0,0,3,476176431,-1223604650,0.0,0.699999988079071,1.7558265924453735,0.0,0.0,0.0,0.0,1.7558265924453735,0.0,24,19399,47.6176431,-122.360465,3.6390101551304133
205,1718211480.044,1,220,0,0,185,0,0,3,476176431,-1223604650,0.0,0.699999988079071,1.7558265924453735,0.0,0.0,0.0,0.0,1.7558265924453735,0.0,24,19399,47.6176431,-122.360465,3.6390101551304133
206,1718211480.312,1,220,0,0,185,0,0,3,476176416,-1223604658,0.0,0.699999988079071,1.6022872924804688,0.0,0.0,0.0,0.0,1.6022872924804688,0.0,24,19800,47.6176416,-122.3604658,3.6456434155099497
207,1718211480.587,1,220,0,0,185,0,0,3,476176416,-1223604658,0.0,0.699999988079071,1.5895497798919678,0.0,0.0,0.0,0.0,1.5895497798919678,0.0,24,19800,47.6176416,-122.3604658,3.640334938615678
208,1718211480.817,1,220,0,0,185,0,0,3,476176403,-1223604659,0.0,0.699999988079071,1.5895497798919678,0.0,0.0,0.0,0.0,1.5895497798919678,0.0,24,19800,47.6176403,-122.3604659,3.3283409192950906
209,1718211481.09,1,220,0,0,185,0,0,3,476176403,-1223604659,0.0,0.699999988079071,1.5895497798919678,0.0,0.0,0.0,0.0,1.5895497798919678,0.0,24,19800,47.6176403,-122.3604659,3.3217072765578233
210,1718211481.3539999,1,220,0,0,185,0,0,3,476176396,-1223604652,0.0,0.699999988079071,1.6972604990005493,0.0,0.0,0.0,0.0,1.6972604990005493,0.0,24,19800,47.6176396,-122.3604652,3.30797221094626
211,1718211481.625,1,220,0,0,185,0,0,3,476176390,-1223604636,0.0,0.699999988079071,1.7224667072296143,0.0,0.0,0.0,0.0,1.7224667072296143,0.0,24,19800,47.617639,-122.3604636,3.308519395794872
212,1718211481.8869998,1,220,0,0,185,0,0,3,476176390,-1223604636,0.0,0.699999988079071,1.7224667072296143,0.0,0.0,0.0,0.0,1.7224667072296143,0.0,24,19800,47.617639,-122.3604636,3.3333333333333335
213,1718211482.178,1,220,0,0,185,0,0,3,476176383,-1223604633,0.0,0.699999988079071,1.819198727607727,0.0,0.0,0.0,0.0,1.819198727607727,0.0,24,19699,47.6176383,-122.3604633,3.3151002859758343
214,1718211482.4129999,1,220,0,0,185,0,0,3,476176383,-1223604633,0.0,0.699999988079071,1.819198727607727,0.0,0.0,0.0,0.0,1.819198727607727,0.0,24,19699,47.6176383,-122.3604633,3.3217072765578233
215,1718211482.687,1,220,0,0,185,0,0,3,476176362,-1223604630,0.0,0.699999988079071,1.8706151247024536,0.0,0.0,0.0,0.0,1.8706151247024536,0.0,24,19699,47.6176362,-122.360463,3.3266799269484215
216,1718211482.9259999,1,220,0,0,185,0,0,3,476176362,-1223604630,0.0,0.699999988079071,1.8706151247024536,0.0,0.0,0.0,0.0,1.8706151247024536,0.0,24,19699,47.6176362,-122.360463,3.3228112003260777
217,1718211483.1859999,1,220,0,0,185,0,0,3,476176362,-1223604630,0.0,0.699999988079071,1.8706151247024536,0.0,0.0,0.0,0.0,1.8706151247024536,0.0,24,19699,47.6176362,-122.360463,3.3355570093769358
218,1718211484.2459998,1,220,0,0,185,0,0,3,476176343,-1223604625,0.0,0.699999988079071,2.294569969177246,0.0,0.0,0.0,0.0,2.294569969177246,0.0,24,19699,47.6176343,-122.3604625,3.3167496011431123
219,1718211484.493,1,220,0,0,185,0,0,3,476176343,-1223604625,0.0,0.699999988079071,2.294569969177246,0.0,0.0,0.0,0.0,2.294569969177246,0.0,24,19699,47.6176343,-122.3604625,3.3327779106077715
220,1718211484.77,1,220,0,0,185,0,0,3,476176330,-1223604622,0.0,0.699999988079071,2.105283260345459,0.0,0.0,0.0,0.0,2.105283260345459,0.0,24,19699,47.617633,-122.3604622,3.3439223175608612
221,1718211485.02,1,220,0,0,185,0,0,3,476176330,-1223604622,0.0,0.699999988079071,2.105283260345459,0.0,0.0,0.0,0.0,2.105283260345459,0.0,24,19699,47.617633,-122.3604622,3.3411294007118224
222,1718211485.29,1,220,0,0,185,0,0,3,476176305,-1223604669,0.0,0.699999988079071,2.0855019092559814,0.0,0.0,0.0,0.0,2.0855019092559814,0.0,24,20500,47.6176305,-122.3604669,3.3523298242456265
223,1718211485.5349998,1,220,0,0,185,0,0,3,476176305,-1223604669,0.0,0.699999988079071,2.0855019092559814,0.0,0.0,0.0,0.0,2.0855019092559814,0.0,24,20500,47.6176305,-122.3604669,3.3557046765083935
224,1718211485.812,1,220,0,0,185,0,0,3,476176284,-1223604695,0.0,0.699999988079071,2.0247700214385986,0.0,0.0,0.0,0.0,2.0247700214385986,0.0,24,20699,47.6176284,-122.3604695,3.3506449424166616
225,1718211486.056,1,220,0,0,185,0,0,3,476176284,-1223604695,0.0,0.699999988079071,2.0247700214385986,0.0,0.0,0.0,0.0,2.0247700214385986,0.0,24,20699,47.6176284,-122.3604695,3.348961887080695
226,1718211486.3309999,1,220,0,0,185,0,0,3,476176279,-1223604704,0.0,0.699999988079071,1.8664207458496094,0.0,0.0,0.0,0.0,1.8664207458496094,0.0,24,20400,47.6176279,-122.3604704,3.180155810274768
227,1718211486.583,1,220,0,0,185,0,0,3,476176279,-1223604704,0.0,0.699999988079071,1.858959674835205,0.0,0.0,0.0,0.0,1.858959674835205,0.0,24,20400,47.6176279,-122.3604704,3.184713390304997
228,1718211486.847,1,220,0,0,185,0,0,3,476176275,-1223604702,0.0,0.699999988079071,1.858959674835205,0.0,0.0,0.0,0.0,1.858959674835205,0.0,24,20500,47.6176275,-122.3604702,3.6409976131231696
229,1718211487.0909998,1,220,0,0,185,0,0,3,476176268,-1223604703,0.0,0.699999988079071,1.8923914432525635,0.0,0.0,0.0,0.0,1.8923914432525635,0.0,24,20599,47.6176268,-122.3604703,3.6456435739476367
230,1718211487.335,1,220,0,0,185,0,0,3,476176268,-1223604703,0.0,0.699999988079071,1.8923914432525635,0.0,0.0,0.0,0.0,1.8923914432525635,0.0,24,20599,47.6176268,-122.3604703,3.6536353824671313
231,1718211487.6109998,1,220,0,0,185,0,0,3,476176251,-1223604709,0.0,0.699999988079071,1.9735393524169922,0.0,0.0,0.0,0.0,1.9735393524169922,0.0,24,20599,47.6176251,-122.3604709,3.650967555966238
232,1718211487.853,1,220,0,0,185,0,0,3,476176251,-1223604709,0.0,0.699999988079071,1.9735393524169922,0.0,0.0,0.0,0.0,1.9735393524169922,0.0,24,20599,47.6176251,-122.3604709,3.644314924534089
233,1718211488.138,1,220,0,0,185,0,0,3,476176241,-1223604709,0.0,0.6000000238418579,1.9521069526672363,0.0,0.0,0.0,0.0,1.9521069526672363,0.0,24,20599,47.6176241,-122.3604709,3.6616623064993417
234,1718211488.382,1,220,0,0,185,0,0,3,476176241,-1223604709,0.0,0.6000000238418579,1.9521069526672363,0.0,0.0,0.0,0.0,1.9521069526672363,0.0,24,20599,47.6176241,-122.3604709,3.6456435739476367
235,1718211488.659,1,220,0,0,185,0,0,3,476176241,-1223604709,0.0,0.6000000238418579,1.9521069526672363,0.0,0.0,0.0,0.0,1.9521069526672363,0.0,24,20599,47.6176241,-122.3604709,3.648303622631656
236,1718211489.215,1,220,0,0,185,0,0,3,476176230,-1223604766,0.0,0.6000000238418579,2.120091676712036,0.0,0.0,0.0,0.0,2.120091676712036,0.0,24,20599,47.617623,-122.3604766,3.648969043038489
237,1718211489.4659998,1,220,0,0,185,0,0,3,476176230,-1223604766,0.0,0.6000000238418579,2.120091676712036,0.0,0.0,0.0,0.0,2.120091676712036,0.0,24,20599,47.617623,-122.3604766,3.658313512363139
238,1718211489.7389998,1,220,0,0,185,0,0,3,476176213,-1223604789,0.0,0.6000000238418579,2.1389551162719727,0.0,0.0,0.0,0.0,2.1389551162719727,0.0,24,20599,47.6176213,-122.3604789,3.6390101551304133
239,1718211489.9789999,1,220,0,0,185,0,0,3,476176213,-1223604789,0.0,0.6000000238418579,2.1389551162719727,0.0,0.0,0.0,0.0,2.1389551162719727,0.0,24,20599,47.6176213,-122.3604789,3.6304229027939896
240,1718211490.244,1,220,0,0,185,0,0,3,476176198,-1223604795,0.0,0.6000000238418579,2.2329835891723633,0.0,0.0,0.0,0.0,2.2329835891723633,0.0,24,20500,47.6176198,-122.3604795,3.629764071618172
241,1718211490.498,1,220,0,0,185,0,0,3,476176198,-1223604795,0.0,0.6000000238418579,2.2329835891723633,0.0,0.0,0.0,0.0,2.2329835891723633,0.0,24,20500,47.6176198,-122.3604795,3.646308024278096
242,1718211490.7779999,1,220,0,0,185,0,0,3,476176192,-1223604783,0.0,0.6000000238418579,2.3564817905426025,0.0,0.0,0.0,0.0,2.3564817905426025,0.0,24,20500,47.6176192,-122.3604783,3.63504174123386
243,1718211490.997,1,220,0,0,185,0,0,3,476176192,-1223604783,0.0,0.6000000238418579,2.3564817905426025,0.0,0.0,0.0,0.0,2.3564817905426025,0.0,24,20500,47.6176192,-122.3604783,3.6277888551574917
244,1718211491.2979999,1,220,0,0,185,0,0,3,476176186,-1223604781,0.0,0.6000000238418579,2.3963770866394043,0.0,0.0,0.0,0.0,2.3963770866394043,0.0,24,20300,47.6176186,-122.3604781,3.640334938615678
245,1718211491.5379999,1,220,0,0,185,0,0,3,476176186,-1223604781,0.0,0.6000000238418579,2.3963770866394043,0.0,0.0,0.0,0.0,2.3963770866394043,0.0,24,20300,47.6176186,-122.3604781,3.6456434155099497
246,1718211491.812,1,220,0,0,185,0,0,3,476176172,-1223604779,0.0,0.6000000238418579,2.4514718055725098,0.0,0.0,0.0,0.0,2.4514718055725098,0.0,24,20100,47.6176172,-122.3604779,3.651634107534223
247,1718211492.05,1,220,0,0,185,0,0,3,476176172,-1223604779,0.0,0.6000000238418579,2.4514718055725098,0.0,0.0,0.0,0.0,2.4514718055725098,0.0,24,20100,47.6176172,-122.3604779,3.6757949009535342
248,1718211492.343,1,220,0,0,185,0,0,3,476176166,-1223604771,0.0,0.6000000238418579,2.524874448776245,0.0,0.0,0.0,0.0,2.524874448776245,0.0,24,19900,47.6176166,-122.3604771,3.6798526832047123
249,1718211492.6,1,220,0,0,185,0,0,3,476176171,-1223604767,0.0,0.6000000238418579,2.529595375061035,0.0,0.0,0.0,0.0,2.529595375061035,0.0,24,19800,47.6176171,-122.3604767,3.675119339623489
250,1718211492.845,1,220,0,0,185,0,0,3,476176171,-1223604767,0.0,0.6000000238418579,2.529595375061035,0.0,0.0,0.0,0.0,2.529595375061035,0.0,24,19800,47.6176171,-122.3604767,3.6523009025292525
251,1718211493.096,1,220,0,0,185,0,0,3,476176171,-1223604767,0.0,0.6000000238418579,2.4813930988311768,0.0,0.0,0.0,0.0,2.4813930988311768,0.0,24,19800,47.6176171,-122.3604767,3.671071983856156
252,1718211493.355,1,220,0,0,185,0,0,3,476176171,-1223604767,0.0,0.6000000238418579,2.4813930988311768,0.0,0.0,0.0,0.0,2.4813930988311768,0.0,24,19900,47.6176171,-122.3604767,3.660992089242827
253,1718211493.651,1,220,0,0,185,0,0,3,476176167,-1223604767,0.0,0.6000000238418579,2.429135322570801,0.0,0.0,0.0,0.0,2.429135322570801,0.0,24,20100,47.6176167,-122.3604767,3.6596523905051206
254,1718211493.876,1,220,0,0,185,0,0,3,476176167,-1223604767,0.0,0.6000000238418579,2.429135322570801,0.0,0.0,0.0,0.0,2.429135322570801,0.0,24,20100,47.6176167,-122.3604767,3.673094466385959
255,1718211494.145,1,220,0,0,185,0,0,3,476176167,-1223604767,0.0,0.6000000238418579,2.429135322570801,0.0,0.0,0.0,0.0,2.429135322570801,0.0,24,20100,47.6176167,-122.3604767,3.667705803806827
256,1718211494.692,1,220,0,0,185,0,0,3,476176157,-1223604787,0.0,0.6000000238418579,2.567862033843994,0.0,0.0,0.0,0.0,2.567862033843994,0.0,24,20900,47.6176157,-122.3604787,3.6643459513899543
257,1718211494.9069998,1,220,0,0,185,0,0,3,476176157,-1223604787,0.0,0.6000000238418579,2.567862033843994,0.0,0.0,0.0,0.0,2.567862033843994,0.0,24,20900,47.6176157,-122.3604787,3.6636747514544123
258,1718211495.174,1,220,0,0,185,0,0,3,476176151,-1223604795,0.0,0.6000000238418579,2.264183282852173,0.0,0.0,0.0,0.0,2.264183282852173,0.0,24,20699,47.6176151,-122.3604795,3.666361187849892
259,1718211495.421,1,220,0,0,185,0,0,3,476176151,-1223604795,0.0,0.6000000238418579,2.264183282852173,0.0,0.0,0.0,0.0,2.264183282852173,0.0,24,20699,47.6176151,-122.3604795,3.665017397303611
260,1718211495.72,1,220,0,0,185,0,0,3,476176150,-1223604796,0.0,0.6000000238418579,2.111199378967285,0.0,0.0,0.0,0.0,2.111199378967285,0.0,24,20400,47.617615,-122.3604796,3.640997771157306
261,1718211495.9459999,1,220,0,0,185,0,0,3,476176150,-1223604796,0.0,0.6000000238418579,2.111199378967285,0.0,0.0,0.0,0.0,2.111199378967285,0.0,24,20400,47.617615,-122.3604796,3.6416606870284185
262,1718211496.241,1,220,0,0,185,0,0,3,476176143,-1223604803,0.0,0.6000000238418579,2.2823939323425293,0.0,0.0,0.0,0.0,2.2823939323425293,0.0,24,20000,47.6176143,-122.3604803,3.6463081827735553
263,1718211496.462,1,220,0,0,185,0,0,3,476176143,-1223604803,0.0,0.6000000238418579,2.2823939323425293,0.0,0.0,0.0,0.0,2.2823939323425293,0.0,24,20000,47.6176143,-122.3604803,3.6636747514544123
264,1718211496.743,1,220,0,0,185,0,0,3,476176136,-1223604807,0.0,0.6000000238418579,2.3533530235290527,0.0,0.0,0.0,0.0,2.3533530235290527,0.0,24,20200,47.6176136,-122.3604807,3.646973033962953
265,1718211496.991,1,220,0,0,185,0,0,3,476176136,-1223604807,0.0,0.6000000238418579,2.3533530235290527,0.0,0.0,0.0,0.0,2.3533530235290527,0.0,24,20200,47.6176136,-122.3604807,3.6589829087547296
266,1718211497.27,1,220,0,0,185,0,0,3,476176135,-1223604805,0.0,0.6000000238418579,2.367140769958496,0.0,0.0,0.0,0.0,2.367140769958496,0.0,24,20300,47.6176135,-122.3604805,3.6596523905051206
267,1718211497.5089998,1,220,0,0,185,0,0,3,476176135,-1223604805,0.0,0.6000000238418579,2.367140769958496,0.0,0.0,0.0,0.0,2.367140769958496,0.0,24,20300,47.6176135,-122.3604805,3.6212203500077984
268,1718211497.7979999,1,220,0,0,185,0,0,3,476176131,-1223604806,0.0,0.6000000238418579,2.332573413848877,0.0,0.0,0.0,0.0,2.332573413848877,0.0,24,20300,47.6176131,-122.3604806,3.6159827093722297
269,1718211498.057,1,220,0,0,185,0,0,3,476176131,-1223604806,0.0,0.6000000238418579,2.332573413848877,0.0,0.0,0.0,0.0,2.332573413848877,0.0,24,20300,47.6176131,-122.3604806,3.6140224592545054
270,1718211498.3379998,1,220,0,0,185,0,0,3,476176117,-1223604812,0.0,0.6000000238418579,2.314150810241699,0.0,0.0,0.0,0.0,2.314150810241699,0.0,24,19200,47.6176117,-122.3604812,3.642987243216351
271,1718211498.5879998,1,220,0,0,185,0,0,3,476176117,-1223604812,0.0,0.6000000238418579,2.24355149269104,0.0,0.0,0.0,0.0,2.24355149269104,0.0,24,19200,47.6176117,-122.3604812,3.629764071618172
272,1718211498.84,1,220,0,0,185,0,0,3,476176104,-1223604807,0.0,0.6000000238418579,2.24355149269104,0.0,0.0,0.0,0.0,2.24355149269104,0.0,24,19000,47.6176104,-122.3604807,3.6277888551574917
273,1718211499.11,1,220,0,0,185,0,0,3,476176097,-1223604817,0.0,0.6000000238418579,2.275982618331909,0.0,0.0,0.0,0.0,2.275982618331909,0.0,24,19000,47.6176097,-122.3604817,3.625815787243145
274,1718211499.36,1,220,0,0,185,0,0,3,476176097,-1223604817,0.0,0.6000000238418579,2.275982618331909,0.0,0.0,0.0,0.0,2.275982618331909,0.0,24,19000,47.6176097,-122.3604817,3.6120643333164972
275,1718211499.6109998,1,220,0,0,185,0,0,3,476176097,-1223604817,0.0,0.6000000238418579,2.275982618331909,0.0,0.0,0.0,0.0,2.275982618331909,0.0,24,19000,47.6176097,-122.3604817,3.6062026661095254
276,1718211500.1569998,1,220,0,0,185,0,0,3,476176078,-1223604839,0.0,0.6000000238418579,2.295175790786743,0.0,0.0,0.0,0.0,2.295175790786743,0.0,24,19100,47.6176078,-122.3604839,3.6179450871280188
277,1718211500.4299998,1,220,0,0,185,0,0,3,476176078,-1223604839,0.0,0.6000000238418579,2.295175790786743,0.0,0.0,0.0,0.0,2.295175790786743,0.0,24,19100,47.6176078,-122.3604839,3.6185994783261903
278,1718211500.705,1,220,0,0,185,0,0,3,476176075,-1223604842,0.0,0.6000000238418579,2.124040126800537,0.0,0.0,0.0,0.0,2.124040126800537,0.0,24,19200,47.6176075,-122.3604842,3.631741440136545
279,1718211500.955,1,220,0,0,185,0,0,3,476176075,-1223604842,0.0,0.6000000238418579,2.124040126800537,0.0,0.0,0.0,0.0,2.124040126800537,0.0,24,19200,47.6176075,-122.3604842,3.6304229027939896
280,1718211501.21,1,220,0,0,185,0,0,3,476176071,-1223604843,0.0,0.699999988079071,2.19254469871521,0.0,0.0,0.0,0.0,2.19254469871521,0.0,24,19200,47.6176071,-122.3604843,3.644979048972749
281,1718211501.4559999,1,220,0,0,185,0,0,3,476176071,-1223604843,0.0,0.699999988079071,2.19254469871521,0.0,0.0,0.0,0.0,2.19254469871521,0.0,24,19200,47.6176071,-122.3604843,3.6317412829049123
282,1718211501.754,1,220,0,0,185,0,0,3,476176069,-1223604843,0.0,0.699999988079071,2.1978232860565186,0.0,0.0,0.0,0.0,2.1978232860565186,0.0,24,19100,47.6176069,-122.3604843,3.6218760830461725
283,1718211501.978,1,220,0,0,185,0,0,3,476176069,-1223604843,0.0,0.699999988079071,2.1978232860565186,0.0,0.0,0.0,0.0,2.1978232860565186,0.0,24,19100,47.6176069,-122.3604843,3.61990943977892
284,1718211502.28,1,220,0,0,185,0,0,3,476176072,-1223604845,0.0,0.699999988079071,2.2546873092651367,0.0,0.0,0.0,0.0,2.2546873092651367,0.0,24,18700,47.6176072,-122.3604845,3.6304229027939896
285,1718211502.537,1,220,0,0,185,0,0,3,476176072,-1223604845,0.0,0.699999988079071,2.2546873092651367,0.0,0.0,0.0,0.0,2.2546873092651367,0.0,24,18700,47.6176072,-122.3604845,3.6172906206028235
286,1718211502.7979999,1,220,0,0,185,0,0,3,476176069,-1223604863,0.0,0.699999988079071,2.32173228263855,0.0,0.0,0.0,0.0,2.32173228263855,0.0,24,18200,47.6176069,-122.3604863,3.625158470345864
287,1718211503.036,1,220,0,0,185,0,0,3,476176069,-1223604863,0.0,0.699999988079071,2.32173228263855,0.0,0.0,0.0,0.0,2.32173228263855,0.0,24,18200,47.6176069,-122.3604863,3.629764071618172
288,1718211503.3049998,1,220,0,0,185,0,0,3,476176051,-1223604869,0.0,0.699999988079071,2.49656343460083,0.0,0.0,0.0,0.0,2.49656343460083,0.0,24,17599,47.6176051,-122.3604869,3.6390101551304133
289,1718211503.566,1,220,0,0,185,0,0,3,476176051,-1223604869,0.0,0.699999988079071,2.570822238922119,0.0,0.0,0.0,0.0,2.570822238922119,0.0,24,17599,47.6176051,-122.3604869,3.6416605289367303
290,1718211503.8249998,1,220,0,0,185,0,0,3,476176045,-1223604872,0.0,0.699999988079071,2.570822238922119,0.0,0.0,0.0,0.0,2.570822238922119,0.0,24,17100,47.6176045,-122.3604872,3.6172907765856994
291,1718211504.095,1,220,0,0,185,0,0,3,476176045,-1223604872,0.0,0.699999988079071,2.5215344429016113,0.0,0.0,0.0,0.0,2.5215344429016113,0.0,24,17100,47.6176045,-122.3604872,3.6264731857783903
292,1718211504.362,1,220,0,0,185,0,0,3,476176050,-1223604871,0.0,0.699999988079071,2.5215344429016113,0.0,0.0,0.0,0.0,2.5215344429016113,0.0,24,16499,47.617605,-122.3604871,3.6456434155099497
293,1718211504.635,1,220,0,0,185,0,0,3,476176047,-1223604876,0.0,0.699999988079071,2.5109238624572754,0.0,0.0,0.0,0.0,2.5109238624572754,0.0,23,16300,47.6176047,-122.3604876,3.629764071618172
294,1718211504.869,1,220,0,0,185,0,0,3,476176047,-1223604876,0.0,0.699999988079071,2.5109238624572754,0.0,0.0,0.0,0.0,2.5109238624572754,0.0,23,16300,47.6176047,-122.3604876,3.654302908602088
295,1718211505.1399999,1,220,0,0,185,0,0,3,476176047,-1223604876,0.0,0.699999988079071,2.5109238624572754,0.0,0.0,0.0,0.0,2.5109238624572754,0.0,23,16300,47.6176047,-122.3604876,3.6616624663324324
296,1718211505.674,1,220,0,0,185,0,0,3,476176044,-1223604880,0.0,0.699999988079071,2.7091550827026367,0.0,0.0,0.0,0.0,2.7091550827026367,0.0,23,15800,47.6176044,-122.360488,3.642323686188188
297,1718211505.9399998,1,220,0,0,185,0,0,3,476176044,-1223604880,0.0,0.699999988079071,2.7091550827026367,0.0,0.0,0.0,0.0,2.7091550827026367,0.0,23,15800,47.6176044,-122.360488,3.6212203500077984
298,1718211506.201,1,220,0,0,185,0,0,3,476176040,-1223604879,0.0,0.699999988079071,2.4929323196411133,0.0,0.0,0.0,0.0,2.4929323196411133,0.0,23,15800,47.617604,-122.3604879,3.6390101551304133
299,1718211506.447,1,220,0,0,185,0,0,3,476176040,-1223604879,0.0,0.699999988079071,2.4929323196411133,0.0,0.0,0.0,0.0,2.4929323196411133,0.0,23,15800,47.617604,-122.3604879,3.6350418987514006
300,1718211506.7389998,1,220,0,0,185,0,0,3,476176042,-1223604877,0.0,0.699999988079071,2.4744832515716553,0.0,0.0,0.0,0.0,2.4744832515716553,0.0,23,15800,47.6176042,-122.3604877,3.6218760830461725
301,1718211506.971,1,220,0,0,185,0,0,3,476176042,-1223604877,0.0,0.699999988079071,2.4744832515716553,0.0,0.0,0.0,0.0,2.4744832515716553,0.0,23,15800,47.6176042,-122.3604877,3.6363636363636362
302,1718211507.24,1,220,0,0,185,0,0,3,476176042,-1223604878,0.0,0.699999988079071,2.4355599880218506,0.0,0.0,0.0,0.0,2.4355599880218506,0.0,23,15800,47.6176042,-122.3604878,3.6416606870284185
303,1718211507.488,1,220,0,0,185,0,0,3,476176042,-1223604878,0.0,0.699999988079071,2.4355599880218506,0.0,0.0,0.0,0.0,2.4355599880218506,0.0,23,15800,47.6176042,-122.3604878,3.6350418987514006
304,1718211507.753,1,220,0,0,185,0,0,3,476176039,-1223604881,0.0,0.699999988079071,2.4349846839904785,0.0,0.0,0.0,0.0,2.4349846839904785,0.0,23,15800,47.6176039,-122.3604881,3.6264733425542026
305,1718211507.9989998,1,220,0,0,185,0,0,3,476176039,-1223604881,0.0,0.699999988079071,2.4349846839904785,0.0,0.0,0.0,0.0,2.4349846839904785,0.0,23,15800,47.6176039,-122.3604881,3.640334938615678
306,1718211508.289,1,220,0,0,185,0,0,3,476176044,-1223604879,0.0,0.699999988079071,2.5067250728607178,0.0,0.0,0.0,0.0,2.5067250728607178,0.0,23,15800,47.6176044,-122.3604879,3.4698126668599163
